{
    "plants": [
        {
            "lname": "Amruthaballi",
            "idx": 1,
            "lat": 26.2006,
            "long": 92.9376,
            "location": "North-eastern regions of India"
           },
           {
            "lname": "Arali",
            "idx": 2,
            "lat": 28.5983,
            "long": 83.931,
            "location": "Himalayas, Madhya Pradesh, Uttar Pradesh,Punjab"
           },
           {
            "lname": "Ashoka",
            "idx": 3,
            "lat": 26.2006,
            "long": 78.9629,
            "location": "India, Myanmar, and Sri Lanka."
           },
           {
            "lname": "Ashwagandha",
            "idx": 4,
            "lat": 27.0238,
            "long": 74.2179,
            "location": "Rajasthan, Punjab, Haryana, Uttar Pradesh, Gujarat, Maharashtra and Madhya Pradesh"
           },
           {
            "lname": "Astma Weed",
            "idx": 5,
            "lat": 20.5937,
            "long": 78.9629,
            "location": "Indian subcontinent"
           },
           {
            "lname": "Avacado",
            "idx": 6,
            "lat": 11.1271,
            "long": 78.6569,
            "location": " North-eastern states of India and coffee estates of South India."
           },
           {
            "lname": "Indian Mallow",
            "idx": 7,
            "lat": 11.1271,
            "long": 78.6569,
            "location": "Tamil Nadu"
           },
           {
            "lname": "Balloon Vine",
            "idx": 8,
            "lat": 12.2602,
            "long": 77.1461,
            "location": " It can be found in the southern states of India, as well as in Jammu and Kashmir"
           },
           {
            "lname": "Bamboo",
            "idx": 9,
            "lat": 22.9734,
            "long": 78.6569,
            "location": "Madhya Pradesh, Maharashtra, Arunachal Pradesh, Odisha"
           },
           {
            "lname": "Basale",
            "idx": 10,
            "lat": 20.5937,
            "long": 78.9629,
            "location": "maharashtra"
           },
           {
            "lname": "Beans(Pavate)",
            "idx": 11,
            "lat": 20.5937,
            "long": 78.9629,
            "location": "maharashtra"
           },
           {
            "lname": "Betel",
            "idx": 12,
            "lat": 26.2006,
            "long": 92.9376,
            "location": "assam"
           },
           {
            "lname": "Betel Nut",
            "idx": 13,
            "lat": 10.1632,
            "long": 76.6413,
            "location": "kerala"
           },
           {
            "lname": "Bringaraj",
            "idx": 14,
            "lat": 10.1632,
            "long": 76.6413,
            "location": "kerala"
           },
           {
            "lname": "Caricature",
            "idx": 15,
            "lat": 12.9716,
            "long": 77.5946,
            "location": "karnataka"
           },
           {
            "lname": "Castor",
            "idx": 16,
            "lat": 22.6708,
            "long": 71.5724,
            "location": "gujrat"
           },
           {
            "lname": "Catharanthus",
            "idx": 17,
            "lat": 11.1271,
            "long": 78.6569,
            "location": "tamil nadu"
           },
           {
            "lname": "Chilli",
            "idx": 18,
            "lat": 15.9129,
            "long": 79.74,
            "location": "andra pradesh"
           },
           {
            "lname": "Citron Lime ",
            "idx": 19,
            "lat": 20.5937,
            "long": 78.9629,
            "location": "maharashtra"
           },
           {
            "lname": "Coffee",
            "idx": 20,
            "lat": 10.1632,
            "long": 76.6413,
            "location": "kerala"
           },
           {
            "lname": "Common Rue",
            "idx": 21,
            "lat": 27.17614,
            "long": 88.5287,
            "location": "sikkim"
           },
           {
            "lname": "Coriender",
            "idx": 22,
            "lat": 22.9734,
            "long": 78.6569,
            "location": "Madhya Pradesh"
           },
           {
            "lname": "Curry Leaf",
            "idx": 23,
            "lat": 19.7515,
            "long": 75.7139,
            "location": "maharashtra"
           },
           {
            "lname": "Doddapatre",
            "idx": 24,
            "lat": 20.5937,
            "long": 78.9629,
            "location": "maharashtra"
           },
           {
            "lname": "Drumstick",
            "idx": 25,
            "lat": 30.0668,
            "long": 79.0193,
            "location": "uttarakhand"
           },
           {
            "lname": "Ekka",
            "idx": 26,
            "lat": 12.9716,
            "long": 77.5946,
            "location": "karnataka"
           },
           {
            "lname": "Eucalyptus",
            "idx": 27,
            "lat": 29.0588,
            "long": 76.0856,
            "location": "haryana"
           },
           {
            "lname": "Ganike",
            "idx": 28,
            "lat": 22.9734,
            "long": 78.6569,
            "location": "Madhya Pradesh"
           },
           {
            "lname": "Gasagase",
            "idx": 29,
            "lat": 22.9734,
            "long": 78.6569,
            "location": "Madhya Pradesh"
           },
           {
            "lname": "Geranium",
            "idx": 30,
            "lat": 33.2778,
            "long": 75.3412,
            "location": "Jammu and Kashmir"
           },
           {
            "lname": "Ginger",
            "idx": 31,
            "lat": 15.3173,
            "long": 75.7139,
            "location": "karnataka"
           },
           {
            "lname": "Globe Amaranth",
            "idx": 32,
            "lat": 29.3909,
            "long": 76.9635,
            "location": "haryana"
           },
           {
            "lname": "Guava",
            "idx": 33,
            "lat": 25.9644,
            "long": 85.2722,
            "location": "bihar"
           },
           {
            "lname": "Henna",
            "idx": 34,
            "lat": 27.1767,
            "long": 78.0081,
            "location": "uttar pradesh"
           },
           {
            "lname": "Hibiscus",
            "idx": 35,
            "lat": 22.9868,
            "long": 87.855,
            "location": "west bengal"
           },
           {
            "lname": "Honge",
            "idx": 36,
            "lat": 22.9868,
            "long": 87.855,
            "location": "west bengal"
           },
           {
            "lname": "Kasamarda",
            "idx": 37,
            "lat": 10.1632,
            "long": 76.6413,
            "location": "kerala"
           },
           {
            "lname": "Lemon",
            "idx": 38,
            "lat": 19.7515,
            "long": 75.7139,
            "location": "maharashtra"
           },
           {
            "lname": "Lemongrass",
            "idx": 39,
            "lat": 15.3173,
            "long": 75.7139,
            "location": "karnataka"
           },
           {
            "lname": "Malabar Nut",
            "idx": 40,
            "lat": 30.0668,
            "long": 79.0193,
            "location": "Utarakhand"
           },
           {
            "lname": "Mango",
            "idx": 41,
            "lat": 19.7515,
            "long": 75.7139,
            "location": "maharashtra"
           },
           {
            "lname": "Marigold",
            "idx": 42,
            "lat": 18.1124,
            "long": 79.0193,
            "location": "telangana"
           },
           {
            "lname": "Mint",
            "idx": 43,
            "lat": 19.7515,
            "long": 75.7139,
            "location": "maharashtra"
           },
           {
            "lname": "Neem",
            "idx": 44,
            "lat": 10.1632,
            "long": 76.6413,
            "location": "kerala"
           },
           {
            "lname": "Nilavembu",
            "idx": 45,
            "lat": 11.1271,
            "long": 78.6569,
            "location": "tamil nadu"
           },
           {
            "lname": "Jamun",
            "idx": 46,
            "lat": 20.5937,
            "long": 78.9629,
            "location": "maharashtra"
           },
           {
            "lname": "Noni",
            "idx": 47,
            "lat": 10.7449,
            "long": 95,
            "location": "Andaman and Nicobar Islands"
           },
           {
            "lname": "Onion",
            "idx": 48,
            "lat": 19.7515,
            "long": 75.7139,
            "location": "maharashtra"
           },
           {
            "lname": "Palak",
            "idx": 49,
            "lat": 18.1124,
            "long": 79.0193,
            "location": "telangana"
           },
           {
            "lname": "Parijat",
            "idx": 50,
            "lat": 27.5706,
            "long": 80.0982,
            "location": "uttar pradesh"
           },
           {
            "lname": "Pea",
            "idx": 51,
            "lat": 22.9734,
            "long": 78.6569,
            "location": "Madhya Pradesh"
           },
           {
            "lname": "Pepper",
            "idx": 52,
            "lat": 15.3173,
            "long": 75.7139,
            "location": "karnataka"
           },
           {
            "lname": "Pomegranate",
            "idx": 53,
            "lat": 22.6708,
            "long": 71.5724,
            "location": "gujrat"
           },
           {
            "lname": "Pumpkin",
            "idx": 54,
            "lat": 20.5937,
            "long": 78.9629,
            "location": "india"
           },
           {
            "lname": "Raddish",
            "idx": 55,
            "lat": 25.9644,
            "long": 85.2722,
            "location": "Bihar"
           },
           {
            "lname": "Champa",
            "idx": 56,
            "lat": 20.5937,
            "long": 78.9629,
            "location": "india"
           },
           {
            "lname": "Chikoo",
            "idx": 57,
            "lat": 22.6708,
            "long": 71.5724,
            "location": "gujrat"
           },
           {
            "lname": "Seethapala",
            "idx": 58,
            "lat": 22.9734,
            "long": 78.6569,
            "location": "madhyapradesh"
           },
           {
            "lname": "Tamarind",
            "idx": 59,
            "lat": 19.7515,
            "long": 75.7139,
            "location": "maharashtra"
           },
           {
            "lname": "Taro",
            "idx": 60,
            "lat": 10.1632,
            "long": 76.6413,
            "location": "kerala"
           },
           {
            "lname": "Tecoma",
            "idx": 61,
            "lat": 29.0588,
            "long": 76.0856,
            "location": "haryana"
           },
           {
            "lname": "Thumbe",
            "idx": 62,
            "lat": 32.1024,
            "long": 77.5619,
            "location": "Himachal Pradesh"
           },
           {
            "lname": "Tomato",
            "idx": 63,
            "lat": 19.7515,
            "long": 75.7139,
            "location": "maharashtra"
           },
           {
            "lname": "Turmeric",
            "idx": 64,
            "lat": 20.5937,
            "long": 78.9629,
            "location": "india"
           },
           {
            "lname": "Camphor",
            "idx": 65,
            "lat": 15.3173,
            "long": 75.7139,
            "location": "karnataka"
           },
           {
            "lname": "Kamakasturi",
            "idx": 66,
            "lat": 10.1632,
            "long": 76.6413,
            "location": "kerala"
           },
           {
            "lname": "Amla",
            "idx": 67,
            "lat": 20.5937,
            "long": 78.9629,
            "location": "india"
           },
           {
            "lname": "Papaya",
            "idx": 68,
            "lat": 20.5937,
            "long": 78.9629,
            "location": "india"
           },
           {
            "lname": "Tulsi",
            "idx": 69,
            "lat": 20.5937,
            "long": 78.9629,
            "location": "india"
           },
           {
            "lname": "Raktachandan",
            "idx": 70,
            "lat": 10.1632,
            "long": 76.6413,
            "location": "kerala"
           },
           {
            "lname": "Kakoli",
            "idx": 71,
            "lat": 32.1024,
            "long": 77.5619,
            "location": "Himachal Pradesh"
           },
           {
            "lname": "Jeevak",
            "idx": 72,
            "lat": 30.0668,
            "long": 79.0193,
            "location": "uttarakhand"
           },
           {
            "lname": "Meda",
            "idx": 73,
            "lat": 20.5937,
            "long": 78.9629,
            "location": "india"
           },
           {
            "lname": "Rishabhaka",
            "idx": 74,
            "lat": 28.5983,
            "long": 83.931,
            "location": "Himalayas"
           },
           {
            "lname": "Jivanti",
            "idx": 75,
            "lat": 27.5706,
            "long": 80.0982,
            "location": "Uttar Pradesh"
           },
           {
            "lname": "Black Haldi",
            "idx": 76,
            "lat": 22.9734,
            "long": 78.6569,
            "location": "Madhya Pradesh"
           },
           {
            "lname": "Varun",
            "idx": 77,
            "lat": 20.5937,
            "long": 78.9629,
            "location": "india"
           },
           {
            "lname": "Punarnava",
            "idx": 78,
            "lat": 22.9734,
            "long": 78.6569,
            "location": "Madhya Pradesh"
           },
           {
            "lname": "Aloevera",
            "idx": 79,
            "lat": 27.0238,
            "long": 74.2179,
            "location": "Rajasthan"
           },
           {
            "lname": "Brahmi",
            "idx": 80,
            "lat": 20.5937,
            "long": 78.9629,
            "location": "india"
           },
           {
            "lname": "Jackfruit",
            "idx": 81,
            "lat": 20.5937,
            "long": 78.9629,
            "location": "india"
           },
           {
            "lname": "Jasmine",
            "idx": 82,
            "lat": 11.1271,
            "long": 78.6569,
            "location": "tamil nadu"
           },
           {
            "lname": "Kohlrabi",
            "idx": 83,
            "lat": 33.2778,
            "long": 75.3412,
            "location": "Kashmir"
           },
           {
            "lname": "Lantana",
            "idx": 84,
            "lat": 22.9868,
            "long": 87.855,
            "location": " West Bengal"
           },
           {
            "lname": "Rose",
            "idx": 85,
            "lat": 20.5937,
            "long": 78.9629,
            "location": "india"
           },
           {
            "lname": "Cumin",
            "idx": 86,
            "lat": 27.0238,
            "long": 74.2179,
            "location": "Rajasthan"
           },
           {
            "lname": "Bitter Melon",
            "idx": 87,
            "lat": 10.1632,
            "long": 76.6413,
            "location": "Kerala"
           },
           {
            "lname": "Cinnamon",
            "idx": 88,
            "lat": 10.1632,
            "long": 76.6413,
            "location": "Kerala"
           },
           {
            "lname": "Cardamom",
            "idx": 89,
            "lat": 10.1632,
            "long": 76.6413,
            "location": "Kerala"
           },
           {
            "lname": "Sandalwood",
            "idx": 90,
            "lat": 15.3173,
            "long": 75.7139,
            "location": "Karnataka"
           },
           {
            "lname": "Peepal",
            "idx": 91,
            "lat": 29.0588,
            "long": 76.0856,
            "location": "Haryana"
           },
           {
            "lname": "Bilva",
            "idx": 92,
            "lat": 20.5937,
            "long": 78.9629,
            "location": "india"
           },
           {
            "lname": "Kesar",
            "idx": 93,
            "lat": 33.2778,
            "long": 75.3412,
            "location": "Jammu and Kashmir"
           },
           {
            "lname": "Tabocca",
            "idx": 94,
            "lat": 15.9129,
            "long": 79.74,
            "location": "Andhra Pradesh"
           },
           {
            "lname": "Triphala",
            "idx": 95,
            "lat": 20.5937,
            "long": 78.9629,
            "location": "india"
           },
           {
            "lname": "Shatavari",
            "idx": 96,
            "lat": 20.5937,
            "long": 78.9629,
            "location": "india"
           },
           {
            "lname": "Licorice root",
            "idx": 97,
            "lat": 32.1024,
            "long": 77.5619,
            "location": "Himachal Pradesh"
           },
           {
            "lname": "Guggul",
            "idx": 98,
            "lat": 27.0238,
            "long": 74.2179,
            "location": "Rajasthan"
           },
           {
            "lname": "Miswak",
            "idx": 99,
            "lat": 20.5937,
            "long": 78.9629,
            "location": "india"
           },
           {
            "lname": "Gotu Kola",
            "idx": 100,
            "lat": 22.9868,
            "long": 87.855,
            "location": " West Bengal"
           },
           {
            "lname": "Malabar Spinach",
            "idx": 101,
            "lat": 10.1632,
            "long": 76.6413,
            "location": "Kerala"
           }
    ]
}