{
    "plants": [
        {
            "idx": 1,
            "lname": "Aloevera",
            "location": "Rajasthan",
            "lat": 27.0238,
            "long": 74.2179
           },
           {
            "idx": 2,
            "lname": "Amla",
            "location": "India",
            "lat": 20.5937,
            "long": 78.9629
           },
           {
            "idx": 3,
            "lname": "Brhingraj",
            "location": "Kerala",
            "lat": 10.1632,
            "long": 76.6413
           },
           {
            "idx": 4,
            "lname": "Ginger",
            "location": "Karnataka",
            "lat": 15.3173,
            "long": 75.7139
           },
           {
            "idx": 5,
            "lname": "Hibiscus",
            "location": "West Bengal",
            "long": 22.9868
           },
           {
            "idx": 6,
            "lname": "Jasmine",
            "location": "Tamil Nadu",
            "lat": 11.1271,
            "long": 78.6569
           },
           {
            "idx": 7,
            "lname": "Kesar",
            "location": "Jammu and Kashmir",
            "lat": 33.2778,
            "long": 75.3412
           },
           {
            "idx": 8,
            "lname": "Lantana",
            "location": " West Bengal",
            "lat": 22.9868,
            "long": 87.855
           },
           {
            "idx": 9,
            "lname": "Marigold",
            "location": "Telangana",
            "lat": 18.1124,
            "long": 79.0193
           },
           {
            "idx": 10,
            "lname": "Neem",
            "location": "Kerala",
            "lat": 10.1632,
            "long": 76.6413
           },
           {
            "idx": 11,
            "lname": "Onion",
            "location": "Maharashtra",
            "lat": 19.7515,
            "long": 75.7139
           },
           {
            "idx": 12,
            "lname": "Raddish",
            "location": "Bihar",
            "lat": 25.9644,
            "long": 85.2722
           },
           {
            "idx": 13,
            "lname": "Shatavari",
            "location": "India",
            "lat": 20.5937,
            "long": 78.9629
           },
           {
            "idx": 14,
            "lname": "Tulsi",
            "location": "India",
            "lat": 20.5937,
            "long": 78.9629
           },
           {
            "idx": 15,
            "lname": "Turmeric",
            "location": "Maharashtra",
            "lat": 19.7515,
            "long": 75.7139
           }
          ]
          
}